{
  "type": "FeatureCollection",
  "features": [
    {
      "type": "Feature",
      "id": "1",
      "geometry": {
        "type": "Point",
        "coordinates": [
          -75.002705,
          40.098795
        ]
      },
      "properties": {
        "id": "1",
        "name": "A Friend",
        "artists": "Charles Parks",
        "years": [
          {
            "year": "1976"
          }
        ],
        "locationDescription": "In front of FOP Lodge 5, 11630 Caroline Rd.",
        "neighborhood": "Northeast Phila Airport"
      }
    },
    {
      "type": "Feature",
      "id": "10",
      "geometry": {
        "type": "Point",
        "coordinates": [
          -75.1718,
          39.95832
        ]
      },
      "properties": {
        "id": "10",
        "name": "All Wars Memorial to Colored Soldiers and Sailors",
        "artists": "J. Otto Schweizer",
        "years": [
          {
            "year": "1934"
          }
        ],
        "locationDescription": "Aviator Park. Southeast of 20th and the Parkway",
        "neighborhood": "Logan Square"
      }
    },
    {
      "type": "Feature",
      "id": "100",
      "geometry": {
        "type": "Point",
        "coordinates": [
          -75.169225,
          39.958185
        ]
      },
      "properties": {
        "id": "100",
        "name": "Diego de Gardoqui",
        "artists": "Luis Sanguino",
        "years": [
          {
            "year": "1977"
          }
        ],
        "locationDescription": "West side of 18th, South of Vine",
        "neighborhood": "Logan Square"
      }
    },
    {
      "type": "Feature",
      "id": "1000",
      "geometry": {
        "type": "Point",
        "coordinates": [
          -75.149665,
          39.9458
        ]
      },
      "properties": {
        "id": "1000",
        "name": "Mary",
        "locationDescription": "East side of 5th, South of Locust",
        "neighborhood": "Society Hill"
      }
    },
    {
      "type": "Feature",
      "id": "1001",
      "geometry": {
        "type": "Point",
        "coordinates": [
          -75.15087,
          39.947595
        ]
      },
      "properties": {
        "id": "1001",
        "name": "William Penn",
        "artists": "Edgar Viguers Seeler (Architect)",
        "years": [
          {
            "year": "1914"
          }
        ],
        "locationDescription": "South side of Walnut, East of 6th",
        "neighborhood": "Society Hill"
      }
    },
    {
      "type": "Feature",
      "id": "1002",
      "geometry": {
        "type": "Point",
        "coordinates": [
          -75.149725,
          39.94596
        ]
      },
      "properties": {
        "id": "1002",
        "name": "St. Mary's School Sign",
        "years": [
          {
            "year": "1970"
          }
        ],
        "locationDescription": "East side of 5th, South of Locust",
        "neighborhood": "Society Hill"
      }
    },
    {
      "type": "Feature",
      "id": "1003",
      "geometry": {
        "type": "Point",
        "coordinates": [
          -75.14951,
          39.94608
        ]
      },
      "properties": {
        "id": "1003",
        "name": "St. Mary's School Doors",
        "years": [
          {
            "year": "1970"
          }
        ],
        "locationDescription": "South side of Locust, East of 5th",
        "neighborhood": "Society Hill"
      }
    },
    {
      "type": "Feature",
      "id": "1004",
      "geometry": {
        "type": "Point",
        "coordinates": [
          -75.155325,
          39.95731
        ]
      },
      "properties": {
        "id": "1004",
        "name": "Saint Francis of Assisi",
        "locationDescription": "Northeast corner, 10th and Vine",
        "neighborhood": "Callowhill"
      }
    },
    {
      "type": "Feature",
      "id": "1005",
      "geometry": {
        "type": "Point",
        "coordinates": [
          -75.1543,
          39.957215
        ]
      },
      "properties": {
        "id": "1005",
        "name": "Jesus",
        "years": [
          {
            "year": "2014"
          }
        ],
        "locationDescription": "North side of Vine, West of 9th",
        "neighborhood": "Callowhill"
      }
    },
    {
      "type": "Feature",
      "id": "1006",
      "geometry": {
        "type": "Point",
        "coordinates": [
          -75.153823,
          39.95717
        ]
      },
      "properties": {
        "id": "1006",
        "name": "Chinatown Zodiac Medallions",
        "artists": "Andrews Lefevre Studios",
        "years": [
          {
            "year": "2012"
          }
        ],
        "locationDescription": "North side of Vine, East of 9th.  The small medallions are arranged along Vine between 9th and 10th and along 10th North and South of Vine",
        "neighborhood": "Callowhill"
      }
    },
    {
      "type": "Feature",
      "id": "1007",
      "geometry": {
        "type": "Point",
        "coordinates": [
          -75.15817,
          39.959195
        ]
      },
      "properties": {
        "id": "1007",
        "name": "City Root",
        "artists": "Keiko Miyamori",
        "years": [
          {
            "year": "2004"
          }
        ],
        "locationDescription": "Northeast corner, 12th and Calowhill",
        "neighborhood": "Callowhill"
      }
    },
    {
      "type": "Feature",
      "id": "1008",
      "geometry": {
        "type": "Point",
        "coordinates": [
          -75.17306,
          39.95766
        ]
      },
      "properties": {
        "id": "1008",
        "name": "Shimmer Wall",
        "artists": "Ned Kahn",
        "years": [
          {
            "year": "2013"
          }
        ],
        "locationDescription": "North side of Race between 20th and 21st",
        "neighborhood": "Logan Square"
      }
    },
    {
      "type": "Feature",
      "id": "1009",
      "geometry": {
        "type": "Point",
        "coordinates": [
          -75.18181,
          39.95031
        ]
      },
      "properties": {
        "id": "1009",
        "name": "Partly Sunny",
        "artists": "Carin Mincemoyer",
        "years": [
          {
            "year": "2014"
          }
        ],
        "locationDescription": "Schuylkill Banks at Locust. East side of the circle",
        "neighborhood": "Rittenhouse"
      }
    },
    {
      "type": "Feature",
      "id": "1010",
      "geometry": {
        "type": "Point",
        "coordinates": [
          -75.16085,
          39.95185
        ]
      },
      "properties": {
        "id": "1010",
        "name": "PTC Trolley No. 2733",
        "artists": "St. Louis Car Company",
        "years": [
          {
            "year": "1947"
          }
        ],
        "locationDescription": "South side of Market between 12th and 13th",
        "neighborhood": "Washington Square West"
      }
    },
    {
      "type": "Feature",
      "id": "1011",
      "geometry": {
        "type": "Point",
        "coordinates": [
          -75.160825,
          39.9518
        ]
      },
      "properties": {
        "id": "1011",
        "name": "PTC Bus No. 1312",
        "artists": "ACF-Brill Motors Co.",
        "years": [
          {
            "year": "1949"
          }
        ],
        "locationDescription": "South side of Market between 12th and 13th",
        "neighborhood": "Washington Square West"
      }
    },
    {
      "type": "Feature",
      "id": "1012",
      "geometry": {
        "type": "Point",
        "coordinates": [
          -75.186075,
          39.99235
        ]
      },
      "properties": {
        "id": "1012",
        "name": "Arches of Resurgence",
        "artists": "Michael Morgan",
        "years": [
          {
            "year": "2013"
          }
        ],
        "locationDescription": "Southeast corner, 33rd and Ridge",
        "neighborhood": "Strawberry Mansion"
      }
    },
    {
      "type": "Feature",
      "id": "1013",
      "geometry": {
        "type": "Point",
        "coordinates": [
          -75.22577,
          40.026145
        ]
      },
      "properties": {
        "id": "1013",
        "name": "Animals of Fairmount Park",
        "artists": "Josey Stamm",
        "years": [
          {
            "year": "2001"
          }
        ],
        "locationDescription": "Schuylkill River Trail off Main and Conarroe",
        "neighborhood": "Manayunk"
      }
    },
    {
      "type": "Feature",
      "id": "1014",
      "geometry": {
        "type": "Point",
        "coordinates": [
          -75.222675,
          40.02381
        ]
      },
      "properties": {
        "id": "1014",
        "name": "River of Life",
        "artists": "Masayuki Nagase",
        "years": [
          {
            "year": "2014"
          }
        ],
        "locationDescription": "Across the canal off Main and Cotton",
        "neighborhood": "Manayunk"
      }
    },
    {
      "type": "Feature",
      "id": "1015",
      "geometry": {
        "type": "Point",
        "coordinates": [
          -75.22171,
          40.02382
        ]
      },
      "properties": {
        "id": "1015",
        "name": "Manayunk Stoops: Heart and Home",
        "artists": "Diane Pieri",
        "years": [
          {
            "year": "2006"
          }
        ],
        "locationDescription": "Five locations along the Schuylkill River Trail between Cotton and Lock",
        "neighborhood": "Manayunk"
      }
    },
    {
      "type": "Feature",
      "id": "1016",
      "geometry": {
        "type": "Point",
        "coordinates": [
          -75.21689,
          40.021225
        ]
      },
      "properties": {
        "id": "1016",
        "name": "Golazo",
        "artists": "Baily Cypress",
        "years": [
          {
            "year": "2010"
          },
          {
            "year": "2012"
          }
        ],
        "locationDescription": "4015 Main Street.  Northeast side of Main, Southeast of Shurs Lane",
        "neighborhood": "Wissahickon"
      }
    },
    {
      "type": "Feature",
      "id": "1017",
      "geometry": {
        "type": "Point",
        "coordinates": [
          -75.20911,
          40.015615
        ]
      },
      "properties": {
        "id": "1017",
        "name": "Welcome to Main Street Manayunk Sign",
        "artists": "Venturi, Scott Brown (and Rauch)",
        "years": [
          {
            "year": "2002"
          }
        ],
        "locationDescription": "Main at Ridge",
        "neighborhood": "Wissahickon"
      }
    },
    {
      "type": "Feature",
      "id": "1018",
      "geometry": {
        "type": "Point",
        "coordinates": [
          -75.20272,
          40.01266
        ]
      },
      "properties": {
        "id": "1018",
        "name": "Smashing Barriers",
        "artists": "Steve Tobin",
        "years": [
          {
            "year": "2006"
          }
        ],
        "locationDescription": "South of Ridge at Schoolhouse",
        "neighborhood": "East Falls"
      }
    },
    {
      "type": "Feature",
      "id": "1019",
      "geometry": {
        "type": "Point",
        "coordinates": [
          -75.1492,
          39.947415
        ]
      },
      "properties": {
        "id": "1019",
        "name": "Independence Building Reliefs",
        "years": [
          {
            "year": "1925"
          }
        ],
        "locationDescription": "South side of Walnut, East of 5th",
        "neighborhood": "Society Hill"
      }
    },
    {
      "type": "Feature",
      "id": "102",
      "geometry": {
        "type": "Point",
        "coordinates": [
          -75.1698,
          39.9039
        ]
      },
      "properties": {
        "id": "102",
        "name": "Dr. J",
        "artists": "Barney Bright",
        "years": [
          {
            "year": "1987"
          }
        ],
        "locationDescription": "Southwest of the Southwest corner of 11th and Pattison",
        "neighborhood": "Stadium District"
      }
    },
    {
      "type": "Feature",
      "id": "1020",
      "geometry": {
        "type": "Point",
        "coordinates": [
          -75.17648,
          39.955
        ]
      },
      "properties": {
        "id": "1020",
        "name": "Trilladelphia",
        "years": [
          {
            "year": "2016"
          }
        ],
        "locationDescription": "West side of 22nd under JFK",
        "neighborhood": "Logan Square"
      }
    },
    {
      "type": "Feature",
      "id": "1021",
      "geometry": {
        "type": "Point",
        "coordinates": [
          -75.14848,
          39.94732
        ]
      },
      "properties": {
        "id": "1021",
        "name": "Royal Coat of Arms of the United Kingdom",
        "years": [
          {
            "year": "1924"
          }
        ],
        "locationDescription": "South side of Walnut, West of 4th",
        "neighborhood": "Society Hill"
      }
    },
    {
      "type": "Feature",
      "id": "1022",
      "geometry": {
        "type": "Point",
        "coordinates": [
          -75.19045,
          39.95155
        ]
      },
      "properties": {
        "id": "1022",
        "name": "Towne Building Face",
        "artists": "Cope and Stewardson (Architects)",
        "years": [
          {
            "year": "1906"
          }
        ],
        "locationDescription": "West side of 33rd between Smith Walk and Walnut",
        "neighborhood": "University City"
      }
    },
    {
      "type": "Feature",
      "id": "1023",
      "geometry": {
        "type": "Point",
        "coordinates": [
          -75.191295,
          39.952585
        ]
      },
      "properties": {
        "id": "1023",
        "name": "Fisher-Bennett Gargoyles",
        "artists": "Stewardson and Page (Architects)",
        "years": [
          {
            "year": "1925"
          }
        ],
        "locationDescription": "South side of Walnut between 33rd and 34th",
        "neighborhood": "University City"
      }
    },
    {
      "type": "Feature",
      "id": "1024",
      "geometry": {
        "type": "Point",
        "coordinates": [
          -75.1981,
          39.95555
        ]
      },
      "properties": {
        "id": "1024",
        "name": "Interfaith Symbol",
        "years": [
          {
            "year": "2016"
          }
        ],
        "locationDescription": "East side of 38th, North of Chestnut",
        "neighborhood": "University City"
      }
    },
    {
      "type": "Feature",
      "id": "1025",
      "geometry": {
        "type": "Point",
        "coordinates": [
          -75.1947,
          39.95635
        ]
      },
      "properties": {
        "id": "1025",
        "name": "Light Matrix",
        "artists": "Leo Villareal",
        "years": [
          {
            "year": "2015"
          }
        ],
        "locationDescription": "North side of Market, West of 36th",
        "neighborhood": "University City"
      }
    },
    {
      "type": "Feature",
      "id": "1026",
      "geometry": {
        "type": "Point",
        "coordinates": [
          -75.176755,
          39.96067
        ]
      },
      "properties": {
        "id": "1026",
        "name": "Park Towne Place East Fountain",
        "locationDescription": "South side of the Parkway, West of 22nd",
        "neighborhood": "Logan Square"
      }
    },
    {
      "type": "Feature",
      "id": "1027",
      "geometry": {
        "type": "Point",
        "coordinates": [
          -75.17749,
          39.96064
        ]
      },
      "properties": {
        "id": "1027",
        "name": "Park Towne Place West Fountain",
        "locationDescription": "South side of the Parkway, West of 22nd",
        "neighborhood": "Logan Square"
      }
    },
    {
      "type": "Feature",
      "id": "1028",
      "geometry": {
        "type": "Point",
        "coordinates": [
          -75.1637,
          39.95212
        ]
      },
      "properties": {
        "id": "1028",
        "name": "St. Andrew's Society Tablet",
        "years": [
          {
            "year": "1926"
          }
        ],
        "locationDescription": "North side of S. Penn Square at Broad",
        "neighborhood": "Center City East"
      }
    },
    {
      "type": "Feature",
      "id": "1029",
      "geometry": {
        "type": "Point",
        "coordinates": [
          -75.18032,
          39.965125
        ]
      },
      "properties": {
        "id": "1029",
        "name": "Rocky Footprints",
        "years": [
          {
            "year": "1993"
          }
        ],
        "locationDescription": "25th and the Parkway",
        "neighborhood": "East Park"
      }
    },
    {
      "type": "Feature",
      "id": "103",
      "geometry": {
        "type": "Point",
        "coordinates": [
          -75.13961,
          39.96979
        ]
      },
      "properties": {
        "id": "103",
        "name": "Don Quijote de la Mancha",
        "artists": "Joaquin Garcia Donaire",
        "years": [
          {
            "year": "1966"
          }
        ],
        "locationDescription": "Middle of 2nd, North of Girard",
        "neighborhood": "Old Kensington"
      }
    },
    {
      "type": "Feature",
      "id": "1030",
      "geometry": {
        "type": "Point",
        "coordinates": [
          -75.17323,
          39.95655
        ]
      },
      "properties": {
        "id": "1030",
        "name": "St. Clement's Parish House Anchor",
        "artists": "Horace Wells Sellers (Architect)",
        "years": [
          {
            "year": "1906"
          }
        ],
        "locationDescription": "South side of Cherry, West of 20th",
        "neighborhood": "Logan Square"
      }
    },
    {
      "type": "Feature",
      "id": "1031",
      "geometry": {
        "type": "Point",
        "coordinates": [
          -75.18205,
          39.95485
        ]
      },
      "properties": {
        "id": "1031",
        "name": "The Porch Swings",
        "artists": "Bill Curran Design, Gehl Studio",
        "years": [
          {
            "year": "2015"
          }
        ],
        "locationDescription": "North side of Market between 29th and 30th",
        "neighborhood": "University City"
      }
    },
    {
      "type": "Feature",
      "id": "1032",
      "geometry": {
        "type": "Point",
        "coordinates": [
          -75.16442,
          39.952485
        ]
      },
      "properties": {
        "id": "1032",
        "name": "City Hall Gates",
        "artists": "John McArthur, Jr., Vitetta",
        "years": [
          {
            "year": "2015"
          }
        ],
        "locationDescription": "East side of 15th at Market",
        "neighborhood": "Center City East"
      }
    },
    {
      "type": "Feature",
      "id": "1033",
      "geometry": {
        "type": "Point",
        "coordinates": [
          -75.14355,
          39.944475
        ]
      },
      "properties": {
        "id": "1033",
        "name": "Scottish Memorial",
        "artists": "Terry Jones",
        "years": [
          {
            "year": "2011"
          }
        ],
        "locationDescription": "North side of Spruce at Front",
        "neighborhood": "Society Hill"
      }
    },
    {
      "type": "Feature",
      "id": "1034",
      "geometry": {
        "type": "Point",
        "coordinates": [
          -75.156075,
          39.954235
        ]
      },
      "properties": {
        "id": "1034",
        "name": "Chinese Cultural and Community Center Dragons",
        "artists": "Yang Cho-cheng (Architect)",
        "years": [
          {
            "year": "1971"
          }
        ],
        "locationDescription": "East side of 10th, South of Cherry",
        "neighborhood": "Chinatown"
      }
    },
    {
      "type": "Feature",
      "id": "1035",
      "geometry": {
        "type": "Point",
        "coordinates": [
          -75.169275,
          39.95722
        ]
      },
      "properties": {
        "id": "1035",
        "name": "AMOR",
        "artists": "Robert Indiana",
        "years": [
          {
            "year": "1998"
          }
        ],
        "locationDescription": "Northwest corner, 18th, Cherry, and the Parkway",
        "neighborhood": "Logan Square"
      }
    },
    {
      "type": "Feature",
      "id": "1036",
      "geometry": {
        "type": "Point",
        "coordinates": [
          -75.183115,
          40.01845
        ]
      },
      "properties": {
        "id": "1036",
        "name": "Continental Army Encampment Memorial",
        "years": [
          {
            "year": "1895"
          }
        ],
        "locationDescription": "South corner, Fox and Queen",
        "neighborhood": "East Falls"
      }
    },
    {
      "type": "Feature",
      "id": "1037",
      "geometry": {
        "type": "Point",
        "coordinates": [
          -75.192945,
          39.961075
        ]
      },
      "properties": {
        "id": "1037",
        "name": "Northminster Presbyterian Lions",
        "artists": "Thomas Webb Richards (Architect)",
        "years": [
          {
            "year": "1875"
          }
        ],
        "locationDescription": "Southwest corner, 35th and Baring",
        "neighborhood": "Powelton"
      }
    },
    {
      "type": "Feature",
      "id": "1038",
      "geometry": {
        "type": "Point",
        "coordinates": [
          -75.19624,
          39.95535
        ]
      },
      "properties": {
        "id": "1038",
        "name": "Cross",
        "years": [
          {
            "year": "1969"
          }
        ],
        "locationDescription": "North of 37th and Chestnut",
        "neighborhood": "University City"
      }
    },
    {
      "type": "Feature",
      "id": "1039",
      "geometry": {
        "type": "Point",
        "coordinates": [
          -75.21998,
          40.08315
        ]
      },
      "properties": {
        "id": "1039",
        "name": "Bull Negative and Bull Positive",
        "artists": "Filippo Bermani",
        "locationDescription": "Corner of Germantown Avenue and Bells Mill Road",
        "neighborhood": "Chestnut Hill"
      }
    },
    {
      "type": "Feature",
      "id": "104",
      "geometry": {
        "type": "Point",
        "coordinates": [
          -75.1892,
          39.95625
        ]
      },
      "properties": {
        "id": "104",
        "name": "Double Figure Eight",
        "artists": "Paul Sisko",
        "years": [
          {
            "year": "1993"
          }
        ],
        "locationDescription": "East side of 33rd, North of Market",
        "neighborhood": "University City"
      }
    },
    {
      "type": "Feature",
      "id": "1040",
      "geometry": {
        "type": "Point",
        "coordinates": [
          -75.193215,
          39.95109
        ]
      },
      "properties": {
        "id": "1040",
        "name": "Wynn Commons Sign",
        "artists": "Venturi, Scott Brown (and Rauch)",
        "years": [
          {
            "year": "2001"
          }
        ],
        "locationDescription": "East end of Penn Commons.  Northwest corner of Irvine Auditorium.  North side of Spruce, West of 34th.",
        "neighborhood": "University City"
      }
    },
    {
      "type": "Feature",
      "id": "1041",
      "geometry": {
        "type": "Point",
        "coordinates": [
          -75.151985,
          39.943115
        ]
      },
      "properties": {
        "id": "1041",
        "name": "Richard Allen",
        "artists": "Fern Cunningham-Terry",
        "years": [
          {
            "year": "2016"
          }
        ],
        "locationDescription": "Northeast corner 6th and Lombard",
        "neighborhood": "Society Hill"
      }
    },
    {
      "type": "Feature",
      "id": "1042",
      "geometry": {
        "type": "Point",
        "coordinates": [
          -75.145935,
          39.948525
        ]
      },
      "properties": {
        "id": "1042",
        "name": "The Arsenal of Independence",
        "artists": "Robert A. M. Stern Architects",
        "years": [
          {
            "year": "2017"
          }
        ],
        "locationDescription": "Southeast Corner, 3rd and Chestnut",
        "neighborhood": "Old City"
      }
    },
    {
      "type": "Feature",
      "id": "1043",
      "geometry": {
        "type": "Point",
        "coordinates": [
          -75.2197,
          40.08255
        ]
      },
      "properties": {
        "id": "1043",
        "name": "Tierra",
        "artists": "Sidney Goodman",
        "years": [
          {
            "year": "1990"
          },
          {
            "year": "1995"
          }
        ],
        "locationDescription": "Corner of Germantown Avenue and Bells Mill Road",
        "neighborhood": "Chestnut Hill"
      }
    },
    {
      "type": "Feature",
      "id": "1044",
      "geometry": {
        "type": "Point",
        "coordinates": [
          -75.14302,
          39.952825
        ]
      },
      "properties": {
        "id": "1044",
        "name": "Elfreth's Alley Sign",
        "locationDescription": "East side of 2nd, North of Arch",
        "neighborhood": "Old City"
      }
    },
    {
      "type": "Feature",
      "id": "1045",
      "geometry": {
        "type": "Point",
        "coordinates": [
          -75.22015,
          40.0827
        ]
      },
      "properties": {
        "id": "1045",
        "name": "Spring & Triangle",
        "artists": "Dina Wind",
        "years": [
          {
            "year": "2016"
          }
        ],
        "locationDescription": "Corner of Germantown Avenue and Bells Mill Road",
        "neighborhood": "Chestnut Hill"
      }
    },
    {
      "type": "Feature",
      "id": "1046",
      "geometry": {
        "type": "Point",
        "coordinates": [
          -75.14575,
          39.9485
        ]
      },
      "properties": {
        "id": "1046",
        "name": "Declaration of Independence",
        "artists": "Tiequn Geng, Guangxi Qihe Bronze Studio, Dr. Komuro Hiromi, Dr. QiongZhao (Ellen) Schicktanz, John Trumbull",
        "years": [
          {
            "year": "2017"
          }
        ],
        "locationDescription": "South side of Chestnut, East of 3rd",
        "neighborhood": "Old City"
      }
    },
    {
      "type": "Feature",
      "id": "1047",
      "geometry": {
        "type": "Point",
        "coordinates": [
          -75.14565,
          39.948495
        ]
      },
      "properties": {
        "id": "1047",
        "name": "Washington Crossing the Delaware",
        "artists": "Guangxi Qihe Bronze Studio, Emanuel Leutze, Dr. QiongZhao (Ellen) Schicktanz",
        "years": [
          {
            "year": "2017"
          }
        ],
        "locationDescription": "South side of Chestnut, East of 3rd",
        "neighborhood": "Old City"
      }
    },
    {
      "type": "Feature",
      "id": "1048",
      "geometry": {
        "type": "Point",
        "coordinates": [
          -75.16315,
          39.95351
        ]
      },
      "properties": {
        "id": "1048",
        "name": "The Bond",
        "artists": "Jim West",
        "years": [
          {
            "year": "2017"
          }
        ],
        "locationDescription": "Northeast corner, Broad and JFK",
        "neighborhood": "Center City East"
      }
    },
    {
      "type": "Feature",
      "id": "1049",
      "geometry": {
        "type": "Point",
        "coordinates": [
          -75.163145,
          39.953675
        ]
      },
      "properties": {
        "id": "1049",
        "name": "Masonic Temple Entrance",
        "artists": "James H. Windrim (Architect)",
        "years": [
          {
            "year": "1868"
          },
          {
            "year": "1873"
          }
        ],
        "locationDescription": "Northeast corner, Broad and JFK",
        "neighborhood": "Center City East"
      }
    },
    {
      "type": "Feature",
      "id": "1050",
      "geometry": {
        "type": "Point",
        "coordinates": [
          -75.177775,
          39.94525
        ]
      },
      "properties": {
        "id": "1050",
        "name": "Handshake",
        "artists": "Magaziner & Eberhard (Architects)",
        "years": [
          {
            "year": "1934"
          }
        ],
        "locationDescription": "North side of South, East of 22nd",
        "neighborhood": "Rittenhouse"
      }
    },
    {
      "type": "Feature",
      "id": "1051",
      "geometry": {
        "type": "Point",
        "coordinates": [
          -75.19326,
          39.950965
        ]
      },
      "properties": {
        "id": "1051",
        "name": "Ivy Day Stones",
        "years": [
          {
            "year": "1936"
          },
          {
            "year": "1948"
          }
        ],
        "locationDescription": "Northwest of 34th and Spruce",
        "neighborhood": "University City"
      }
    },
    {
      "type": "Feature",
      "id": "1052",
      "geometry": {
        "type": "Point",
        "coordinates": [
          -75.16143,
          39.94845
        ]
      },
      "properties": {
        "id": "1052",
        "name": "Camac Center",
        "artists": "Isaiah Zagar",
        "years": [
          {
            "year": "2014"
          }
        ],
        "locationDescription": "East side of Camac, South of Walnut",
        "neighborhood": "Washington Square West"
      }
    },
    {
      "type": "Feature",
      "id": "1053",
      "geometry": {
        "type": "Point",
        "coordinates": [
          -75.219855,
          40.082965
        ]
      },
      "properties": {
        "id": "1053",
        "name": "Sankofa Kore",
        "artists": "Christopher Smith",
        "years": [
          {
            "year": "2011"
          }
        ],
        "locationDescription": "Corner of Germantown Avenue and Bells Mill Road",
        "neighborhood": "Chestnut Hill"
      }
    },
    {
      "type": "Feature",
      "id": "1054",
      "geometry": {
        "type": "Point",
        "coordinates": [
          -75.17813,
          39.95319
        ]
      },
      "properties": {
        "id": "1054",
        "name": "First Troop Helmet",
        "years": [
          {
            "year": "1900"
          }
        ],
        "locationDescription": "East side of 23rd, North of Chestnut",
        "neighborhood": "Rittenhouse"
      }
    },
    {
      "type": "Feature",
      "id": "1055",
      "geometry": {
        "type": "Point",
        "coordinates": [
          -75.178625,
          39.96899
        ]
      },
      "properties": {
        "id": "1055",
        "name": "Do Good Things",
        "years": [
          {
            "year": "2015"
          }
        ],
        "locationDescription": "Northwest corner, 25th and Aspen",
        "neighborhood": "Fairmount"
      }
    },
    {
      "type": "Feature",
      "id": "1056",
      "geometry": {
        "type": "Point",
        "coordinates": [
          -75.219525,
          40.08267
        ]
      },
      "properties": {
        "id": "1056",
        "name": "Disc",
        "artists": "Paul Sisko",
        "years": [
          {
            "year": "1990"
          }
        ],
        "locationDescription": "Corner of Germantown Avenue and Bells Mill Road",
        "neighborhood": "Chestnut Hill"
      }
    },
    {
      "type": "Feature",
      "id": "1057",
      "geometry": {
        "type": "Point",
        "coordinates": [
          -75.1641,
          39.951775
        ]
      },
      "properties": {
        "id": "1057",
        "name": "A Quest for Parity: The Octavius V. Catto Memorial",
        "artists": "Branly Cadet",
        "years": [
          {
            "year": "2017"
          }
        ],
        "locationDescription": "North side of S. Penn Square at Broad",
        "neighborhood": "Center City East"
      }
    },
    {
      "type": "Feature",
      "id": "1058",
      "geometry": {
        "type": "Point",
        "coordinates": [
          -75.219805,
          40.08299
        ]
      },
      "properties": {
        "id": "1058",
        "name": "Pillar",
        "artists": "Leon Sitarchuk",
        "years": [
          {
            "year": "1978"
          }
        ],
        "locationDescription": "Corner of Germantown Avenue and Bells Mill Road",
        "neighborhood": "Chestnut Hill"
      }
    },
    {
      "type": "Feature",
      "id": "1059",
      "geometry": {
        "type": "Point",
        "coordinates": [
          -75.17831,
          39.95102
        ]
      },
      "properties": {
        "id": "1059",
        "name": "Roosevelt Apartments Entrance",
        "artists": "Joseph Margolis (Architect), O.W. Ketcham Terra Cotta Works",
        "years": [
          {
            "year": "1927"
          }
        ],
        "locationDescription": "Southeast corner, 23rd and Walnut",
        "neighborhood": "Rittenhouse"
      }
    },
    {
      "type": "Feature",
      "id": "106",
      "geometry": {
        "type": "Point",
        "coordinates": [
          -75.19631,
          39.955025
        ]
      },
      "properties": {
        "id": "106",
        "name": "Doves",
        "artists": "James Frost",
        "years": [
          {
            "year": "1969"
          }
        ],
        "locationDescription": "Northeast corner, 37th and Chestnut",
        "neighborhood": "University City"
      }
    },
    {
      "type": "Feature",
      "id": "1060",
      "geometry": {
        "type": "Point",
        "coordinates": [
          -75.181775,
          39.966835
        ]
      },
      "properties": {
        "id": "1060",
        "name": "Bell",
        "artists": "Toshiko Takaezu",
        "years": [
          {
            "year": "1986"
          }
        ],
        "locationDescription": "Anne d'Harnocourt Drive (25th and Kelly Drive to the Spring Garden Bridge)",
        "neighborhood": "East Park"
      }
    },
    {
      "type": "Feature",
      "id": "1061",
      "geometry": {
        "type": "Point",
        "coordinates": [
          -75.15576,
          40.0194
        ]
      },
      "properties": {
        "id": "1061",
        "name": "Nicetown Park Tiles",
        "locationDescription": "East side of Germantown, North of St. Pauls",
        "neighborhood": "Nicetown"
      }
    },
    {
      "type": "Feature",
      "id": "1062",
      "geometry": {
        "type": "Point",
        "coordinates": [
          -75.15556,
          40.0193
        ]
      },
      "properties": {
        "id": "1062",
        "name": "Untitled",
        "artists": "Jon Bogle",
        "years": [
          {
            "year": "1974"
          }
        ],
        "locationDescription": "Northeast corner, Germantown and St. Pauls",
        "neighborhood": "Nicetown"
      }
    },
    {
      "type": "Feature",
      "id": "1063",
      "geometry": {
        "type": "Point",
        "coordinates": [
          -75.182275,
          39.96695
        ]
      },
      "properties": {
        "id": "1063",
        "name": "Gift",
        "artists": "William G. Tucker",
        "years": [
          {
            "year": "2005"
          }
        ],
        "locationDescription": "Anne d'Harnocourt Drive (25th and Kelly Drive to the Spring Garden Bridge)",
        "neighborhood": "East Park"
      }
    },
    {
      "type": "Feature",
      "id": "1064",
      "geometry": {
        "type": "Point",
        "coordinates": [
          -75.167425,
          40.042675
        ]
      },
      "properties": {
        "id": "1064",
        "name": "Saint Vincent de Paul",
        "years": [
          {
            "year": "1868"
          }
        ],
        "locationDescription": "Southeast side of E. Chelten, Southwest of Musgrave",
        "neighborhood": "East Germantown"
      }
    },
    {
      "type": "Feature",
      "id": "1065",
      "geometry": {
        "type": "Point",
        "coordinates": [
          -75.19925,
          39.95264
        ]
      },
      "properties": {
        "id": "1065",
        "name": "Masnad",
        "artists": "Bryan Hunt",
        "years": [
          {
            "year": "1980"
          },
          {
            "year": "1981"
          }
        ],
        "locationDescription": "West side of 38th, North side of the Locust Walk Bridge",
        "neighborhood": "University City"
      }
    },
    {
      "type": "Feature",
      "id": "1066",
      "geometry": {
        "type": "Point",
        "coordinates": [
          -75.181225,
          40.043775
        ]
      },
      "properties": {
        "id": "1066",
        "name": "Upper Burial Ground Memorials",
        "locationDescription": "Northeast side of Germantown Avenue, Northwest of Washington Lane",
        "neighborhood": "East Mount Airy"
      }
    },
    {
      "type": "Feature",
      "id": "1067",
      "geometry": {
        "type": "Point",
        "coordinates": [
          -75.1579,
          40.052065
        ]
      },
      "properties": {
        "id": "1067",
        "name": "East Germantown World War Memorial",
        "years": [
          {
            "year": "1923"
          }
        ],
        "locationDescription": "Traffic island, Chelten, Wyncote, and Wister",
        "neighborhood": "East Germantown"
      }
    },
    {
      "type": "Feature",
      "id": "1068",
      "geometry": {
        "type": "Point",
        "coordinates": [
          -75.1766,
          39.953675
        ]
      },
      "properties": {
        "id": "1068",
        "name": "June 5th Memorial",
        "artists": "Scott Aker, Barb Fox",
        "years": [
          {
            "year": "2018"
          }
        ],
        "locationDescription": "Southeast corner, 22nd and Market",
        "neighborhood": "Rittenhouse"
      }
    },
    {
      "type": "Feature",
      "id": "1069",
      "geometry": {
        "type": "Point",
        "coordinates": [
          -75.170875,
          40.04502
        ]
      },
      "properties": {
        "id": "1069",
        "name": "Magnolia Blossom",
        "artists": "Harold Kimmelman",
        "years": [
          {
            "year": "1969"
          }
        ],
        "locationDescription": "West side of Belfield between Haines and High",
        "neighborhood": "Germantown - Morton"
      }
    },
    {
      "type": "Feature",
      "id": "107",
      "geometry": {
        "type": "Point",
        "coordinates": [
          -75.1962,
          39.956265
        ]
      },
      "properties": {
        "id": "107",
        "name": "Dream of Sky",
        "artists": "Timothy Duffield",
        "years": [
          {
            "year": "1976"
          }
        ],
        "locationDescription": "South side of Market at the 37th Street Walkway",
        "neighborhood": "University City"
      }
    },
    {
      "type": "Feature",
      "id": "1070",
      "geometry": {
        "type": "Point",
        "coordinates": [
          -75.1947,
          40.0224
        ]
      },
      "properties": {
        "id": "1070",
        "name": "Lace Fence",
        "artists": "Demakersvan",
        "years": [
          {
            "year": "2009"
          }
        ],
        "locationDescription": "West side of Henry, North of School House Lane",
        "neighborhood": "East Falls"
      }
    },
    {
      "type": "Feature",
      "id": "1071",
      "geometry": {
        "type": "Point",
        "coordinates": [
          -75.172695,
          39.90205
        ]
      },
      "properties": {
        "id": "1071",
        "name": "Ed Snider",
        "artists": "Chad Fisher",
        "years": [
          {
            "year": "2017"
          }
        ],
        "locationDescription": "East side of Broad, South of Pattison",
        "neighborhood": "Stadium District"
      }
    },
    {
      "type": "Feature",
      "id": "1072",
      "geometry": {
        "type": "Point",
        "coordinates": [
          -75.173035,
          40.0401
        ]
      },
      "properties": {
        "id": "1072",
        "name": "Lightning Bolts",
        "artists": "Harold Kimmelman",
        "years": [
          {
            "year": "1973"
          }
        ],
        "locationDescription": "Northeast side of Baynton, Southeast of Rittenhouse",
        "neighborhood": "Germantown - Morton"
      }
    },
    {
      "type": "Feature",
      "id": "1073",
      "geometry": {
        "type": "Point",
        "coordinates": [
          -75.16566,
          39.95426
        ]
      },
      "properties": {
        "id": "1073",
        "name": "Love Park Fountain",
        "artists": "Hargreaves Jones, KieranTimberlake",
        "years": [
          {
            "year": "2018"
          }
        ],
        "locationDescription": "Southeast of the Southeast corner, 16th and Arch",
        "neighborhood": "Logan Square"
      }
    },
    {
      "type": "Feature",
      "id": "1074",
      "geometry": {
        "type": "Point",
        "coordinates": [
          -75.140375,
          39.960515
        ]
      },
      "properties": {
        "id": "1074",
        "name": "Spring Garden Connector",
        "artists": "Cloud Geshen, The Lighting Practice",
        "years": [
          {
            "year": "2016"
          }
        ],
        "locationDescription": "Spring Garden, East of 2nd",
        "neighborhood": "Northern Liberties"
      }
    },
    {
      "type": "Feature",
      "id": "1075",
      "geometry": {
        "type": "Point",
        "coordinates": [
          -75.16347,
          40.034095
        ]
      },
      "properties": {
        "id": "1075",
        "name": "Origins I",
        "artists": "Robert Sanabria",
        "years": [
          {
            "year": "1980"
          }
        ],
        "locationDescription": "Southeast side of East Ashmead, between Wakefield and Rubicam",
        "neighborhood": "Wister"
      }
    },
    {
      "type": "Feature",
      "id": "1076",
      "geometry": {
        "type": "Point",
        "coordinates": [
          -75.21159,
          40.0465
        ]
      },
      "properties": {
        "id": "1076",
        "name": "Fingerspan",
        "artists": "Jody Pinto",
        "years": [
          {
            "year": "1987"
          }
        ],
        "locationDescription": "Down the orange trail from the West end of the West Mount Airy section of Livezy Lane.",
        "neighborhood": "Wissahickon Park"
      }
    },
    {
      "type": "Feature",
      "id": "1077",
      "geometry": {
        "type": "Point",
        "coordinates": [
          -75.17086,
          39.9518
        ]
      },
      "properties": {
        "id": "1077",
        "name": "Belgravia Lion Heads",
        "years": [
          {
            "year": "1902"
          }
        ],
        "locationDescription": "North side of Chestnut between 18th and 19th",
        "neighborhood": "Rittenhouse"
      }
    },
    {
      "type": "Feature",
      "id": "1078",
      "geometry": {
        "type": "Point",
        "coordinates": [
          -75.20349,
          40.074375
        ]
      },
      "properties": {
        "id": "1078",
        "name": "Bear Bench",
        "years": [
          {
            "year": "2008"
          }
        ],
        "locationDescription": "North corner, Germantown and Southampton",
        "neighborhood": "Chestnut Hill"
      }
    },
    {
      "type": "Feature",
      "id": "1079",
      "geometry": {
        "type": "Point",
        "coordinates": [
          -75.1524,
          39.942915
        ]
      },
      "properties": {
        "id": "1079",
        "name": "Twilight Tales",
        "artists": "Delia King",
        "years": [
          {
            "year": "2013"
          }
        ],
        "locationDescription": "Southwest corner, 6th and Lombard",
        "neighborhood": "Society Hill"
      }
    },
    {
      "type": "Feature",
      "id": "108",
      "geometry": {
        "type": "Point",
        "coordinates": [
          -75.187,
          39.95385
        ]
      },
      "properties": {
        "id": "108",
        "name": "Drexel University Main Building Entrance",
        "artists": "New York Architectural Terra-Cotta Company, Wilson Brothers and Company (Architects)",
        "years": [
          {
            "year": "1891"
          }
        ],
        "locationDescription": "North side of Chestnut, just East of the 32nd Street walkway",
        "neighborhood": "University City"
      }
    },
    {
      "type": "Feature",
      "id": "1080",
      "geometry": {
        "type": "Point",
        "coordinates": [
          -75.1627,
          39.94445
        ]
      },
      "properties": {
        "id": "1080",
        "name": "While Everything Is Happening Everywhere Else",
        "artists": "Isaiah Zagar",
        "years": [
          {
            "year": "2017"
          }
        ],
        "locationDescription": "Lombard and Isemenger (North side of Lombard between 12th and 13th)",
        "neighborhood": "Washington Square West"
      }
    },
    {
      "type": "Feature",
      "id": "1081",
      "geometry": {
        "type": "Point",
        "coordinates": [
          -75.202835,
          40.07411
        ]
      },
      "properties": {
        "id": "1081",
        "name": "Dogs",
        "artists": "Mark Chatterley",
        "years": [
          {
            "year": "2016"
          }
        ],
        "locationDescription": "Northwest side of Germantown, South of Southampton, at the end of the walkway",
        "neighborhood": "Chestnut Hill"
      }
    },
    {
      "type": "Feature",
      "id": "1082",
      "geometry": {
        "type": "Point",
        "coordinates": [
          -75.202615,
          40.07426
        ]
      },
      "properties": {
        "id": "1082",
        "name": "Daisy",
        "artists": "Rebecca Hoenig",
        "years": [
          {
            "year": "2006"
          }
        ],
        "locationDescription": "Southampton, Northeast of Germantown, across the parking lot",
        "neighborhood": "Chestnut Hill"
      }
    },
    {
      "type": "Feature",
      "id": "1083",
      "geometry": {
        "type": "Point",
        "coordinates": [
          -75.2206,
          40.08305
        ]
      },
      "properties": {
        "id": "1083",
        "name": "Untitled",
        "artists": "Sam Maitin",
        "years": [
          {
            "year": "2017"
          }
        ],
        "locationDescription": "Corner of Germantown Avenue and Bells Mill Road",
        "neighborhood": "Chestnut Hill"
      }
    },
    {
      "type": "Feature",
      "id": "1084",
      "geometry": {
        "type": "Point",
        "coordinates": [
          -75.18982,
          39.95451
        ]
      },
      "properties": {
        "id": "1084",
        "name": "The Study at University City",
        "artists": "Shelly Bradbury",
        "years": [
          {
            "year": "2016"
          }
        ],
        "locationDescription": "West side of 33rd, North of Chestnut",
        "neighborhood": "University City"
      }
    },
    {
      "type": "Feature",
      "id": "1085",
      "geometry": {
        "type": "Point",
        "coordinates": [
          -75.1672,
          39.954925
        ]
      },
      "properties": {
        "id": "1085",
        "name": "Horwitz-Wasserman Holocaust Memorial Plaza",
        "artists": "WRT",
        "years": [
          {
            "year": "2018"
          }
        ],
        "locationDescription": "Between the Parkway and Arch, West of 16th",
        "neighborhood": "Logan Square"
      }
    },
    {
      "type": "Feature",
      "id": "1086",
      "geometry": {
        "type": "Point",
        "coordinates": [
          -75.169775,
          39.9549
        ]
      },
      "properties": {
        "id": "1086",
        "name": "For Philadelphia",
        "artists": "Jenny Holzer",
        "years": [
          {
            "year": "2018"
          }
        ],
        "locationDescription": "Southwest corner, 18th and Arch",
        "neighborhood": "Logan Square"
      }
    },
    {
      "type": "Feature",
      "id": "1087",
      "geometry": {
        "type": "Point",
        "coordinates": [
          -75.16985,
          39.9549
        ]
      },
      "properties": {
        "id": "1087",
        "name": "Exploded Paradigm",
        "artists": "Conrad Shawcross",
        "years": [
          {
            "year": "2018"
          }
        ],
        "locationDescription": "Southwest corner, 18th and Arch",
        "neighborhood": "Logan Square"
      }
    },
    {
      "type": "Feature",
      "id": "1088",
      "geometry": {
        "type": "Point",
        "coordinates": [
          -75.226475,
          40.02672
        ]
      },
      "properties": {
        "id": "1088",
        "name": "Main Street Fire Station Lion Heads",
        "artists": "John Molitor (Architect)",
        "years": [
          {
            "year": "1928"
          }
        ],
        "locationDescription": "North side of Main, East of Green",
        "neighborhood": "Manayunk"
      }
    },
    {
      "type": "Feature",
      "id": "1089",
      "geometry": {
        "type": "Point",
        "coordinates": [
          -75.19807,
          39.95575
        ]
      },
      "properties": {
        "id": "1089",
        "name": "When I was Hungry and Thirsty",
        "artists": "Timothy Schmalz",
        "years": [
          {
            "year": "2017"
          }
        ],
        "locationDescription": "East side of 38th, North of Chestnut",
        "neighborhood": "University City"
      }
    },
    {
      "type": "Feature",
      "id": "109",
      "geometry": {
        "type": "Point",
        "coordinates": [
          -75.1718,
          39.949375
        ]
      },
      "properties": {
        "id": "109",
        "name": "Duck Girl",
        "artists": "Paul Manship",
        "years": [
          {
            "year": "1911"
          }
        ],
        "locationDescription": "Southwest from 18th and Walnut",
        "neighborhood": "Rittenhouse"
      }
    },
    {
      "type": "Feature",
      "id": "1090",
      "geometry": {
        "type": "Point",
        "coordinates": [
          -75.1995,
          39.9552
        ]
      },
      "properties": {
        "id": "1090",
        "name": "Hamilton Court Sidewalk Lights",
        "years": [
          {
            "year": "2018"
          }
        ],
        "locationDescription": "South side of Chestnut, East of 39th",
        "neighborhood": "University City"
      }
    },
    {
      "type": "Feature",
      "id": "1091",
      "geometry": {
        "type": "Point",
        "coordinates": [
          -75.18322,
          39.965415
        ]
      },
      "properties": {
        "id": "1091",
        "name": "Water Nymph and Bittern",
        "artists": "William Rush",
        "years": [
          {
            "year": "1809"
          }
        ],
        "locationDescription": "Schuylkill Banks near the Spring Garden Bridge",
        "neighborhood": "East Park"
      }
    },
    {
      "type": "Feature",
      "id": "1092",
      "geometry": {
        "type": "Point",
        "coordinates": [
          -75.1829,
          39.966085
        ]
      },
      "properties": {
        "id": "1092",
        "name": "Mercury",
        "artists": "William Rush",
        "years": [
          {
            "year": "1828"
          }
        ],
        "locationDescription": "Anne d'Harnocourt Drive between the Spring Garden Bridge and the back steps of the Museum",
        "neighborhood": "East Park"
      }
    },
    {
      "type": "Feature",
      "id": "1093",
      "geometry": {
        "type": "Point",
        "coordinates": [
          -75.20633,
          39.94001
        ]
      },
      "properties": {
        "id": "1093",
        "name": "Newkirk Viaduct Monument",
        "artists": "Thomas Ustick Walter",
        "years": [
          {
            "year": "1839"
          }
        ],
        "locationDescription": "North end of Bartram's Mile",
        "neighborhood": "Bartram Village"
      }
    },
    {
      "type": "Feature",
      "id": "1094",
      "geometry": {
        "type": "Point",
        "coordinates": [
          -75.164605,
          39.94875
        ]
      },
      "properties": {
        "id": "1094",
        "name": "Bellevue Lions",
        "years": [
          {
            "year": "1989"
          }
        ],
        "locationDescription": "West side of Broad between Walnut and Locust",
        "neighborhood": "Rittenhouse"
      }
    },
    {
      "type": "Feature",
      "id": "1095",
      "geometry": {
        "type": "Point",
        "coordinates": [
          -75.206685,
          39.93751
        ]
      },
      "properties": {
        "id": "1095",
        "name": "The Claw",
        "locationDescription": "49th and Botanic",
        "neighborhood": "Bartram Village"
      }
    },
    {
      "type": "Feature",
      "id": "1096",
      "geometry": {
        "type": "Point",
        "coordinates": [
          -75.18724,
          39.92589
        ]
      },
      "properties": {
        "id": "1096",
        "name": "MVP",
        "artists": "Brian McCutcheon",
        "years": [
          {
            "year": "2019"
          }
        ],
        "locationDescription": "Southwest of the Southwest corner, 24th and Snyder",
        "neighborhood": "Grays Ferry"
      }
    },
    {
      "type": "Feature",
      "id": "1097",
      "geometry": {
        "type": "Point",
        "coordinates": [
          -75.1553,
          39.9516
        ]
      },
      "properties": {
        "id": "1097",
        "name": "Goniochome",
        "artists": "Softlab",
        "years": [
          {
            "year": "2019"
          }
        ],
        "locationDescription": "Northwest corner, 9th and Market",
        "neighborhood": "Center City East"
      }
    },
    {
      "type": "Feature",
      "id": "1098",
      "geometry": {
        "type": "Point",
        "coordinates": [
          -75.195915,
          39.95656
        ]
      },
      "properties": {
        "id": "1098",
        "name": "Spectral Grove",
        "artists": "Softlab",
        "years": [
          {
            "year": "2019"
          }
        ],
        "locationDescription": "Northwest corner, 37th and Market",
        "neighborhood": "University City"
      }
    },
    {
      "type": "Feature",
      "id": "1099",
      "geometry": {
        "type": "Point",
        "coordinates": [
          -75.21005,
          39.95405
        ]
      },
      "properties": {
        "id": "1099",
        "name": "Free Rose Dinkins",
        "artists": "Mary DeWitt",
        "years": [
          {
            "year": "2003"
          }
        ],
        "locationDescription": "East of the Northeast corner, 44th and Locust",
        "neighborhood": "Spruce Hill"
      }
    },
    {
      "type": "Feature",
      "id": "11",
      "geometry": {
        "type": "Point",
        "coordinates": [
          -75.19018,
          39.951375
        ]
      },
      "properties": {
        "id": "11",
        "name": "War Memorial Flagpole",
        "artists": "Charles Rudy",
        "years": [
          {
            "year": "1951"
          }
        ],
        "locationDescription": "East side of 33rd South of Walnut (across from Smith Walk)",
        "neighborhood": "University City"
      }
    },
    {
      "type": "Feature",
      "id": "110",
      "geometry": {
        "type": "Point",
        "coordinates": [
          -75.19555,
          39.97475
        ]
      },
      "properties": {
        "id": "110",
        "name": "The Dying Lioness",
        "artists": "Friedrich Wilhelm Wolff",
        "years": [
          {
            "year": "1873"
          }
        ],
        "locationDescription": "Southwest corner, 34th and Girard",
        "neighborhood": "Mantua"
      }
    },
    {
      "type": "Feature",
      "id": "1100",
      "geometry": {
        "type": "Point",
        "coordinates": [
          -75.17602,
          39.96125
        ]
      },
      "properties": {
        "id": "1100",
        "name": "Maja",
        "artists": "Gerhard Marcks",
        "years": [
          {
            "year": "1942"
          }
        ],
        "locationDescription": "South side of the Parkway, West of 22nd",
        "neighborhood": "Logan Square"
      }
    },
    {
      "type": "Feature",
      "id": "1101",
      "geometry": {
        "type": "Point",
        "coordinates": [
          -75.19255,
          39.9525
        ]
      },
      "properties": {
        "id": "1101",
        "name": "Brick House",
        "artists": "Simone Leigh",
        "years": [
          {
            "year": "2019"
          }
        ],
        "locationDescription": "Southwest corner, 34th and Walnut",
        "neighborhood": "University City"
      }
    },
    {
      "type": "Feature",
      "id": "1102",
      "geometry": {
        "type": "Point",
        "coordinates": [
          -75.155755,
          39.981455
        ]
      },
      "properties": {
        "id": "1102",
        "name": "Temple Owl",
        "artists": "John  J. Giannotti",
        "years": [
          {
            "year": "2017"
          }
        ],
        "locationDescription": "Liacouras and Polett Walks",
        "neighborhood": "Hartranft"
      }
    },
    {
      "type": "Feature",
      "id": "1103",
      "geometry": {
        "type": "Point",
        "coordinates": [
          -75.15569,
          39.98139
        ]
      },
      "properties": {
        "id": "1103",
        "name": "O'Connor Plaza Fountain",
        "artists": "Sikora Wells Appel",
        "years": [
          {
            "year": "2017"
          }
        ],
        "locationDescription": "Liacouras and Polett Walks",
        "neighborhood": "Hartranft"
      }
    },
    {
      "type": "Feature",
      "id": "1104",
      "geometry": {
        "type": "Point",
        "coordinates": [
          -75.173175,
          39.945735
        ]
      },
      "properties": {
        "id": "1104",
        "name": "Philadelphia School of Occupational Therapy Reliefs",
        "artists": "Bissel and Sinkler (Architects), Georgina Pope Yeatman (Architect)",
        "years": [
          {
            "year": "1930"
          }
        ],
        "locationDescription": "Northeast corner, 19th and Lombard",
        "neighborhood": "Rittenhouse"
      }
    },
    {
      "type": "Feature",
      "id": "1105",
      "geometry": {
        "type": "Point",
        "coordinates": [
          -75.17276,
          39.9477
        ]
      },
      "properties": {
        "id": "1105",
        "name": "Ram Heads and Griffins",
        "artists": "Walter Ballinger/Ballinger Company (Architects)",
        "years": [
          {
            "year": "1924"
          }
        ],
        "locationDescription": "East side of 19th, South of Spruce",
        "neighborhood": "Rittenhouse"
      }
    },
    {
      "type": "Feature",
      "id": "1106",
      "geometry": {
        "type": "Point",
        "coordinates": [
          -75.1607,
          39.94785
        ]
      },
      "properties": {
        "id": "1106",
        "name": "Aurora Ensemble",
        "artists": "Ray King",
        "years": [
          {
            "year": "1989"
          }
        ],
        "locationDescription": "East side of 12th, North of Locust",
        "neighborhood": "Washington Square West"
      }
    },
    {
      "type": "Feature",
      "id": "1107",
      "geometry": {
        "type": "Point",
        "coordinates": [
          -75.16226,
          39.953075
        ]
      },
      "properties": {
        "id": "1107",
        "name": "City Hall Annex",
        "artists": "Philip H. Johnson (Architect)",
        "years": [
          {
            "year": "1926"
          }
        ],
        "locationDescription": "Southeast corner, Juniper and Filbert",
        "neighborhood": "Center City East"
      }
    },
    {
      "type": "Feature",
      "id": "1108",
      "geometry": {
        "type": "Point",
        "coordinates": [
          -75.16135,
          39.94981
        ]
      },
      "properties": {
        "id": "1108",
        "name": "Plan of the City of Philadelphia",
        "locationDescription": "North side of Sansom between 12th and 13th",
        "neighborhood": "Washington Square West"
      }
    },
    {
      "type": "Feature",
      "id": "1109",
      "geometry": {
        "type": "Point",
        "coordinates": [
          -75.161585,
          39.950945
        ]
      },
      "properties": {
        "id": "1109",
        "name": "Hairdressing Sign",
        "years": [
          {
            "year": "1887"
          }
        ],
        "locationDescription": "East side of 13th, North of Chestnut",
        "neighborhood": "Washington Square West"
      }
    },
    {
      "type": "Feature",
      "id": "111",
      "geometry": {
        "type": "Point",
        "coordinates": [
          -75.14625,
          39.94805
        ]
      },
      "properties": {
        "id": "111",
        "name": "Eagle",
        "artists": "Claudius F. Le Grand and Sons",
        "years": [
          {
            "year": "1797"
          }
        ],
        "locationDescription": "West side of 3rd between Chestnut and Walnut",
        "neighborhood": "Old City"
      }
    },
    {
      "type": "Feature",
      "id": "1110",
      "geometry": {
        "type": "Point",
        "coordinates": [
          -75.16272,
          39.95293
        ]
      },
      "properties": {
        "id": "1110",
        "name": "Berg Laboratories Explosion Memorial",
        "years": [
          {
            "year": "2008"
          }
        ],
        "locationDescription": "Southwest corner, Juniper and JFK",
        "neighborhood": "Center City East"
      }
    },
    {
      "type": "Feature",
      "id": "1111",
      "geometry": {
        "type": "Point",
        "coordinates": [
          -75.167325,
          39.95271
        ]
      },
      "properties": {
        "id": "1111",
        "name": "1600",
        "artists": "Collective Architecture",
        "years": [
          {
            "year": "2021"
          }
        ],
        "locationDescription": "South side of Market, West of 16th",
        "neighborhood": "Rittenhouse"
      }
    },
    {
      "type": "Feature",
      "id": "1112",
      "geometry": {
        "type": "Point",
        "coordinates": [
          -75.148575,
          39.951085
        ]
      },
      "properties": {
        "id": "1112",
        "name": "Beacon",
        "artists": "FKB, Local Projects",
        "years": [
          {
            "year": "2021"
          }
        ],
        "locationDescription": "The former Faith and Liberty Discovery Center. East side of 5th, North of Market",
        "neighborhood": "Old City"
      }
    },
    {
      "type": "Feature",
      "id": "1113",
      "geometry": {
        "type": "Point",
        "coordinates": [
          -75.160185,
          39.95344
        ]
      },
      "properties": {
        "id": "1113",
        "name": "Contrafuerte",
        "artists": "Miguel Horn",
        "years": [
          {
            "year": "2021"
          }
        ],
        "locationDescription": "Cuthbert, West of 12th",
        "neighborhood": "Center City East"
      }
    },
    {
      "type": "Feature",
      "id": "1114",
      "geometry": {
        "type": "Point",
        "coordinates": [
          -75.16925,
          39.92546
        ]
      },
      "properties": {
        "id": "1114",
        "name": "PSFS Franklin Logo",
        "artists": "George Howe (Architect)",
        "years": [
          {
            "year": "1924"
          }
        ],
        "locationDescription": "Southeast corner, Broad, McKean, and Passyunk",
        "neighborhood": "East Passyunk"
      }
    },
    {
      "type": "Feature",
      "id": "1115",
      "geometry": {
        "type": "Point",
        "coordinates": [
          -75.20296,
          40.074535
        ]
      },
      "properties": {
        "id": "1115",
        "name": "Bear",
        "years": [
          {
            "year": "2008"
          }
        ],
        "locationDescription": "Parking lot entrance, Southeast side of Southampton, Northeast of Germantown",
        "neighborhood": "Chestnut Hill"
      }
    },
    {
      "type": "Feature",
      "id": "1116",
      "geometry": {
        "type": "Point",
        "coordinates": [
          -75.1806,
          39.954665
        ]
      },
      "properties": {
        "id": "1116",
        "name": "Market Bridge Lights",
        "artists": "GVA Lighting",
        "years": [
          {
            "year": "2013"
          }
        ],
        "locationDescription": "Market Street, East of 29th to West of 24th",
        "neighborhood": "University City"
      }
    },
    {
      "type": "Feature",
      "id": "1117",
      "geometry": {
        "type": "Point",
        "coordinates": [
          -75.1657,
          39.95225
        ]
      },
      "properties": {
        "id": "1117",
        "name": "Under the Clothespin",
        "artists": "Emilie Ledieu, Miriam Singer",
        "years": [
          {
            "year": "2012"
          }
        ],
        "locationDescription": "South side of Market at 15th",
        "neighborhood": "Rittenhouse"
      }
    },
    {
      "type": "Feature",
      "id": "1118",
      "geometry": {
        "type": "Point",
        "coordinates": [
          -75.1551,
          39.94065
        ]
      },
      "properties": {
        "id": "1118",
        "name": "Philadelphia Maneto",
        "years": [
          {
            "year": "1905"
          }
        ],
        "locationDescription": "Northeast of the Northeast corner of 8th and Fitzwater",
        "neighborhood": "Bella Vista"
      }
    },
    {
      "type": "Feature",
      "id": "1119",
      "geometry": {
        "type": "Point",
        "coordinates": [
          -75.155585,
          39.942225
        ]
      },
      "properties": {
        "id": "1119",
        "name": "Dreamer (Yellow Snake)",
        "artists": "Isaiah Zagar",
        "years": [
          {
            "year": "1999"
          }
        ],
        "locationDescription": "West side of 8th, South of South",
        "neighborhood": "Bella Vista"
      }
    },
    {
      "type": "Feature",
      "id": "112",
      "geometry": {
        "type": "Point",
        "coordinates": [
          -75.18195,
          39.95439
        ]
      },
      "properties": {
        "id": "112",
        "name": "Eagle",
        "artists": "Rankin and Kellog (Architects)",
        "years": [
          {
            "year": "1933"
          }
        ],
        "locationDescription": "Southwest corner, 29th and Market",
        "neighborhood": "University City"
      }
    },
    {
      "type": "Feature",
      "id": "1120",
      "geometry": {
        "type": "Point",
        "coordinates": [
          -75.168075,
          39.954275
        ]
      },
      "properties": {
        "id": "1120",
        "name": "Suburban Station",
        "artists": "Isaiah Zagar",
        "years": [
          {
            "year": "2012"
          }
        ],
        "locationDescription": "Underground, North of the Southeast corner of 17th and JFK.",
        "neighborhood": "Logan Square"
      }
    },
    {
      "type": "Feature",
      "id": "1121",
      "geometry": {
        "type": "Point",
        "coordinates": [
          -75.197815,
          39.95485
        ]
      },
      "properties": {
        "id": "1121",
        "name": "Mary",
        "years": [
          {
            "year": "2021"
          }
        ],
        "locationDescription": "South side of Chestnut, East of 38th",
        "neighborhood": "University City"
      }
    },
    {
      "type": "Feature",
      "id": "1122",
      "geometry": {
        "type": "Point",
        "coordinates": [
          -75.20135,
          39.9557
        ]
      },
      "properties": {
        "id": "1122",
        "name": "Swain House Busts",
        "artists": "William H. Decker (Architect)",
        "years": [
          {
            "year": "1893"
          }
        ],
        "locationDescription": "North side of Chestnut between 39th and 40th",
        "neighborhood": "University City"
      }
    },
    {
      "type": "Feature",
      "id": "1123",
      "geometry": {
        "type": "Point",
        "coordinates": [
          -75.1992,
          39.955165
        ]
      },
      "properties": {
        "id": "1123",
        "name": "Hamilton Court Logos",
        "artists": "Milligan and Webber (Architects)",
        "years": [
          {
            "year": "1901"
          }
        ],
        "locationDescription": "South side of Chestnut, West of 38th",
        "neighborhood": "University City"
      }
    },
    {
      "type": "Feature",
      "id": "1124",
      "geometry": {
        "type": "Point",
        "coordinates": [
          -75.20258,
          39.95381
        ]
      },
      "properties": {
        "id": "1124",
        "name": "Liber Libere Omnibus",
        "artists": "Charles L. Borie, Jr. (Architect), Clarence Zantzinger (Architect)",
        "years": [
          {
            "year": "1905"
          }
        ],
        "locationDescription": "East side of 40th, South of Walnut",
        "neighborhood": "University City"
      }
    },
    {
      "type": "Feature",
      "id": "1125",
      "geometry": {
        "type": "Point",
        "coordinates": [
          -75.170075,
          39.959975
        ]
      },
      "properties": {
        "id": "1125",
        "name": "Hallahan Logo",
        "artists": "Walter Ballinger/Ballinger Company (Architects), Emile George Perrot (Architect)",
        "years": [
          {
            "year": "1911"
          }
        ],
        "locationDescription": "East side of 19th, North of Wood",
        "neighborhood": "Logan Square"
      }
    },
    {
      "type": "Feature",
      "id": "1126",
      "geometry": {
        "type": "Point",
        "coordinates": [
          -75.182415,
          39.952375
        ]
      },
      "properties": {
        "id": "1126",
        "name": "Schuylkill Avenue Viaduct Decorative Barriers",
        "years": [
          {
            "year": "2021"
          }
        ],
        "locationDescription": "West side of Schuylkill Avenue (aka 29th Street) between Chestnut and Walnut",
        "neighborhood": "University City"
      }
    },
    {
      "type": "Feature",
      "id": "1127",
      "geometry": {
        "type": "Point",
        "coordinates": [
          -75.159311,
          39.951965
        ]
      },
      "properties": {
        "id": "1127",
        "name": "Convention Center Logo",
        "years": [
          {
            "year": "1993"
          }
        ],
        "locationDescription": "North side of Market, East of 12th",
        "neighborhood": "Center City East"
      }
    },
    {
      "type": "Feature",
      "id": "1128",
      "geometry": {
        "type": "Point",
        "coordinates": [
          -75.1736,
          39.95349
        ]
      },
      "properties": {
        "id": "1128",
        "name": "2000MKT",
        "years": [
          {
            "year": "2021"
          }
        ],
        "locationDescription": "South side of Market, West of 20th",
        "neighborhood": "Rittenhouse"
      }
    },
    {
      "type": "Feature",
      "id": "1129",
      "geometry": {
        "type": "Point",
        "coordinates": [
          -75.1674,
          39.954225
        ]
      },
      "properties": {
        "id": "1129",
        "name": "Opposing Forces",
        "artists": "Ellen Tiberino, Alvin Tull",
        "years": [
          {
            "year": "2021"
          }
        ],
        "locationDescription": "Under JFK between 16th and 17th",
        "neighborhood": "Logan Square"
      }
    },
    {
      "type": "Feature",
      "id": "113",
      "geometry": {
        "type": "Point",
        "coordinates": [
          -75.18109,
          39.9544
        ]
      },
      "properties": {
        "id": "113",
        "name": "Eagles",
        "artists": "Adolph Alexander Weinman",
        "years": [
          {
            "year": "1903"
          }
        ],
        "locationDescription": "East of 29th and West of 24th on Market",
        "neighborhood": "University City"
      }
    },
    {
      "type": "Feature",
      "id": "1130",
      "geometry": {
        "type": "Point",
        "coordinates": [
          -75.17422,
          39.953815
        ]
      },
      "properties": {
        "id": "1130",
        "name": "Koi",
        "artists": "Juliet Whelan",
        "years": [
          {
            "year": "2014"
          }
        ],
        "locationDescription": "South side of Market between 20th and 21st",
        "neighborhood": "Logan Square"
      }
    },
    {
      "type": "Feature",
      "id": "1131",
      "geometry": {
        "type": "Point",
        "coordinates": [
          -75.18671,
          39.92261
        ]
      },
      "properties": {
        "id": "1131",
        "name": "Major General John Fulton Reynolds Memorial",
        "locationDescription": "Northeast corner, 24th and Passyunk",
        "neighborhood": "West Passyunk"
      }
    },
    {
      "type": "Feature",
      "id": "1132",
      "geometry": {
        "type": "Point",
        "coordinates": [
          -75.15674,
          39.94233
        ]
      },
      "properties": {
        "id": "1132",
        "name": "Schell Street Cosmos",
        "artists": "Lynn Denton",
        "years": [
          {
            "year": "2015"
          }
        ],
        "locationDescription": "West side of Schell, just South of South",
        "neighborhood": "Bella Vista"
      }
    },
    {
      "type": "Feature",
      "id": "1133",
      "geometry": {
        "type": "Point",
        "coordinates": [
          -75.15965,
          39.94281
        ]
      },
      "properties": {
        "id": "1133",
        "name": "This Is The Day, Jesus Journey",
        "artists": "Isaiah Zagar",
        "years": [
          {
            "year": "2006"
          }
        ],
        "locationDescription": "Southeast corner, South and Clifton",
        "neighborhood": "Hawthorne"
      }
    },
    {
      "type": "Feature",
      "id": "1134",
      "geometry": {
        "type": "Point",
        "coordinates": [
          -75.159865,
          39.94281
        ]
      },
      "properties": {
        "id": "1134",
        "name": "Bilal From Pakistan",
        "artists": "Isaiah Zagar",
        "years": [
          {
            "year": "2013"
          }
        ],
        "locationDescription": "West side of Clifton, South of South",
        "neighborhood": "Hawthorne"
      }
    },
    {
      "type": "Feature",
      "id": "1135",
      "geometry": {
        "type": "Point",
        "coordinates": [
          -75.2269,
          40.0267
        ]
      },
      "properties": {
        "id": "1135",
        "name": "Remember Me",
        "years": [
          {
            "year": "2020"
          }
        ],
        "neighborhood": "Manayunk"
      }
    },
    {
      "type": "Feature",
      "id": "1136",
      "geometry": {
        "type": "Point",
        "coordinates": [
          -75.2274,
          40.02685
        ]
      },
      "properties": {
        "id": "1136",
        "name": "Waters of Change",
        "artists": "Paul Santoleri",
        "years": [
          {
            "year": "2013"
          }
        ],
        "locationDescription": "South of Main Street at Green Lane",
        "neighborhood": "Manayunk"
      }
    },
    {
      "type": "Feature",
      "id": "1137",
      "geometry": {
        "type": "Point",
        "coordinates": [
          -75.234565,
          40.032225
        ]
      },
      "properties": {
        "id": "1137",
        "name": "Concrete Tree",
        "artists": "Paul Santoleri",
        "years": [
          {
            "year": "2016"
          }
        ],
        "locationDescription": "Schuylkill Trail, Northwest of Fountain between Umbria and Flat Rock",
        "neighborhood": "Germany Hill"
      }
    },
    {
      "type": "Feature",
      "id": "1138",
      "geometry": {
        "type": "Point",
        "coordinates": [
          -75.23025,
          40.028805
        ]
      },
      "properties": {
        "id": "1138",
        "name": "Coinciding Currents",
        "artists": "Beth Clevenstine",
        "years": [
          {
            "year": "2016"
          }
        ],
        "locationDescription": "Schuylkill River Trail, Southeast of Leverington.  Due South of Main and Leverington",
        "neighborhood": "Manayunk"
      }
    },
    {
      "type": "Feature",
      "id": "1139",
      "geometry": {
        "type": "Point",
        "coordinates": [
          -75.22861,
          40.02759
        ]
      },
      "properties": {
        "id": "1139",
        "name": "Canal Bridge Mosaic",
        "years": [
          {
            "year": "2009"
          }
        ],
        "locationDescription": "Schuylkill River Trail between Green Lane and Leverington",
        "neighborhood": "Manayunk"
      }
    },
    {
      "type": "Feature",
      "id": "114",
      "geometry": {
        "type": "Point",
        "coordinates": [
          -75.14485,
          39.9444
        ]
      },
      "properties": {
        "id": "114",
        "name": "Earth, Air, Fire, Water",
        "artists": "Christopher T. Ray",
        "years": [
          {
            "year": "1972"
          },
          {
            "year": "1990"
          }
        ],
        "locationDescription": "Southeast corner, 2nd and Spruce",
        "neighborhood": "Society Hill"
      }
    },
    {
      "type": "Feature",
      "id": "1140",
      "geometry": {
        "type": "Point",
        "coordinates": [
          -75.13975,
          39.95305
        ]
      },
      "properties": {
        "id": "1140",
        "name": "Weaver's Knot: Sheet Bend",
        "artists": "Ball-Nogues Studio",
        "years": [
          {
            "year": "2022"
          }
        ],
        "locationDescription": "East side of Columbus, South of Race",
        "neighborhood": "Riverfront"
      }
    },
    {
      "type": "Feature",
      "id": "1141",
      "geometry": {
        "type": "Point",
        "coordinates": [
          -75.1431,
          39.943735
        ]
      },
      "properties": {
        "id": "1141",
        "name": "Corporal Michael J. Crescenz MOH",
        "artists": "Chad Fisher",
        "years": [
          {
            "year": "2016"
          }
        ],
        "locationDescription": "Southeast of the Southeast corner, Front and Spruce",
        "neighborhood": "Riverfront"
      }
    },
    {
      "type": "Feature",
      "id": "1142",
      "geometry": {
        "type": "Point",
        "coordinates": [
          -75.16279,
          39.954465
        ]
      },
      "properties": {
        "id": "1142",
        "name": "Liberty Title Building Dragons",
        "artists": "Savery and Scheetz (Architects)",
        "years": [
          {
            "year": "1929"
          }
        ],
        "locationDescription": "North side of Arch, East of Broad",
        "neighborhood": "Center City East"
      }
    },
    {
      "type": "Feature",
      "id": "1143",
      "geometry": {
        "type": "Point",
        "coordinates": [
          -75.16281,
          39.94326
        ]
      },
      "properties": {
        "id": "1143",
        "name": "Ellen's Bicycle",
        "artists": "Isaiah Zagar",
        "years": [
          {
            "year": "2011"
          }
        ],
        "locationDescription": "South side of South between 12th and 13th",
        "neighborhood": "Hawthorne"
      }
    },
    {
      "type": "Feature",
      "id": "1144",
      "geometry": {
        "type": "Point",
        "coordinates": [
          -75.17926,
          39.96734
        ]
      },
      "properties": {
        "id": "1144",
        "name": "stikman (Pennsylvania and Fairmount)",
        "artists": "stikman",
        "locationDescription": "Traffic light control box, Northeast corner, Pennsylvania and Fairmount",
        "neighborhood": "Spring Garden"
      }
    },
    {
      "type": "Feature",
      "id": "1145",
      "geometry": {
        "type": "Point",
        "coordinates": [
          -75.14884,
          39.9504
        ]
      },
      "properties": {
        "id": "1145",
        "name": "OY/YO",
        "artists": "Deborah Kass",
        "years": [
          {
            "year": "2022"
          }
        ],
        "locationDescription": "Southeast corner, 5th and Market",
        "neighborhood": "Old City"
      }
    },
    {
      "type": "Feature",
      "id": "1146",
      "geometry": {
        "type": "Point",
        "coordinates": [
          -75.175,
          39.961665
        ]
      },
      "properties": {
        "id": "1146",
        "name": "stikmen (22nd and Parkway)",
        "artists": "stikman",
        "locationDescription": "North side of 22nd and the Parkway",
        "neighborhood": "Logan Square"
      }
    },
    {
      "type": "Feature",
      "id": "1147",
      "geometry": {
        "type": "Point",
        "coordinates": [
          -75.14489,
          39.95338
        ]
      },
      "properties": {
        "id": "1147",
        "name": "At the Center",
        "artists": "Gord Peteran",
        "years": [
          {
            "year": "2011"
          }
        ],
        "locationDescription": "East side of 3rd, South of Quarry",
        "neighborhood": "Old City"
      }
    },
    {
      "type": "Feature",
      "id": "1148",
      "geometry": {
        "type": "Point",
        "coordinates": [
          -75.176175,
          39.95593
        ]
      },
      "properties": {
        "id": "1148",
        "name": "Science Leadership Academy Sign",
        "years": [
          {
            "year": "2006"
          }
        ],
        "neighborhood": "Logan Square"
      }
    },
    {
      "type": "Feature",
      "id": "1149",
      "geometry": {
        "type": "Point",
        "coordinates": [
          -75.172123,
          39.958715
        ]
      },
      "properties": {
        "id": "1149",
        "name": "stikman (20th and Parkway)",
        "artists": "stikman",
        "locationDescription": "South side of 20th and the Parkway",
        "neighborhood": "Logan Square"
      }
    },
    {
      "type": "Feature",
      "id": "115",
      "geometry": {
        "type": "Point",
        "coordinates": [
          -75.246725,
          39.89407
        ]
      },
      "properties": {
        "id": "115",
        "name": "Eastwick Farmpark",
        "artists": "Rosalie Sherman",
        "years": [
          {
            "year": "1983"
          }
        ],
        "locationDescription": "84th and Crane",
        "neighborhood": "Eastwick"
      }
    },
    {
      "type": "Feature",
      "id": "1150",
      "geometry": {
        "type": "Point",
        "coordinates": [
          -75.151575,
          39.94926
        ]
      },
      "properties": {
        "id": "1150",
        "name": "Signers Walk",
        "artists": "Franklin Mint",
        "years": [
          {
            "year": "1975"
          }
        ],
        "locationDescription": "South side of Chestnut between 6th and 7th",
        "neighborhood": "Old City"
      }
    },
    {
      "type": "Feature",
      "id": "1151",
      "geometry": {
        "type": "Point",
        "coordinates": [
          -75.171365,
          39.957465
        ]
      },
      "properties": {
        "id": "1151",
        "name": "stikman (Race and Logan Circle)",
        "artists": "stikman",
        "locationDescription": "Race and Logan Circle",
        "neighborhood": "Logan Square"
      }
    },
    {
      "type": "Feature",
      "id": "1152",
      "geometry": {
        "type": "Point",
        "coordinates": [
          -75.173795,
          39.95776
        ]
      },
      "properties": {
        "id": "1152",
        "name": "Grumman Lunar Module",
        "artists": "Grumman Spacecats",
        "years": [
          {
            "year": "1976"
          }
        ],
        "locationDescription": "North side of Race, East of 21st",
        "neighborhood": "Logan Square"
      }
    },
    {
      "type": "Feature",
      "id": "1153",
      "geometry": {
        "type": "Point",
        "coordinates": [
          -75.1789,
          39.966475
        ]
      },
      "properties": {
        "id": "1153",
        "name": "stikman (25th and Pennsylvania SE)",
        "artists": "stikman",
        "locationDescription": "East side of 25th, in the Southeastbound lanes of Pennsylvania.",
        "neighborhood": "East Park"
      }
    },
    {
      "type": "Feature",
      "id": "1154",
      "geometry": {
        "type": "Point",
        "coordinates": [
          -75.171485,
          39.965185
        ]
      },
      "properties": {
        "id": "1154",
        "name": "Gates",
        "years": [
          {
            "year": "2007"
          }
        ],
        "locationDescription": "North side of Green, West of 20th",
        "neighborhood": "Spring Garden"
      }
    },
    {
      "type": "Feature",
      "id": "1155",
      "geometry": {
        "type": "Point",
        "coordinates": [
          -75.1789,
          39.96685
        ]
      },
      "properties": {
        "id": "1155",
        "name": "stikman (25th and Pennsylvania NW)",
        "artists": "stikman",
        "locationDescription": "West side of 25th, in the Northwestbound lanes of Pennsylvania.",
        "neighborhood": "Spring Garden"
      }
    },
    {
      "type": "Feature",
      "id": "1156",
      "geometry": {
        "type": "Point",
        "coordinates": [
          -75.179535,
          39.96645
        ]
      },
      "properties": {
        "id": "1156",
        "name": "stikmen (25th and Kelly Drive)",
        "artists": "stikman",
        "locationDescription": "West corner, 25th and Kelly Drive",
        "neighborhood": "East Park"
      }
    },
    {
      "type": "Feature",
      "id": "1157",
      "geometry": {
        "type": "Point",
        "coordinates": [
          -75.171,
          39.89105
        ]
      },
      "properties": {
        "id": "1157",
        "name": "Alpha Sacred Beings",
        "artists": "Marianela Fuentes",
        "years": [
          {
            "year": "2022"
          }
        ],
        "locationDescription": "11th and Constitution",
        "neighborhood": "Navy Yard"
      }
    },
    {
      "type": "Feature",
      "id": "1158",
      "geometry": {
        "type": "Point",
        "coordinates": [
          -75.201855,
          39.959075
        ]
      },
      "properties": {
        "id": "1158",
        "name": "The Sculptural Installation for the 40th Street Corridor",
        "artists": "Sandra Webberking",
        "years": [
          {
            "year": "2013"
          }
        ],
        "locationDescription": "Southeast corner, 40th and Powelton",
        "neighborhood": "West Powelton"
      }
    },
    {
      "type": "Feature",
      "id": "1159",
      "geometry": {
        "type": "Point",
        "coordinates": [
          -75.1404,
          39.95351
        ]
      },
      "properties": {
        "id": "1159",
        "name": "Haas Biergarten Rabbits",
        "artists": "Groundswell Design Group",
        "years": [
          {
            "year": "2013"
          }
        ],
        "locationDescription": "South side of Race, West of Columbus Blvd.",
        "neighborhood": "Riverfront"
      }
    },
    {
      "type": "Feature",
      "id": "116",
      "geometry": {
        "type": "Point",
        "coordinates": [
          -75.192175,
          39.95161
        ]
      },
      "properties": {
        "id": "116",
        "name": "Edgar Fahs Smith",
        "artists": "R. Tait McKenzie",
        "years": [
          {
            "year": "1925"
          }
        ],
        "locationDescription": "East side of 34th St. at Smith Walk (between Walnut and Spruce)",
        "neighborhood": "University City"
      }
    },
    {
      "type": "Feature",
      "id": "1160",
      "geometry": {
        "type": "Point",
        "coordinates": [
          -75.162887,
          39.95003
        ]
      },
      "properties": {
        "id": "1160",
        "name": "Roy G. Biv",
        "artists": "Klip Collective",
        "years": [
          {
            "year": "2022"
          }
        ],
        "locationDescription": "Northeast corner, Juniper and Sansom",
        "neighborhood": "Washington Square West"
      }
    },
    {
      "type": "Feature",
      "id": "1161",
      "geometry": {
        "type": "Point",
        "coordinates": [
          -75.149765,
          39.94916
        ]
      },
      "properties": {
        "id": "1161",
        "name": "Independence Hall History",
        "locationDescription": "North side of Chestnut between 5th and 6th",
        "neighborhood": "Old City"
      }
    },
    {
      "type": "Feature",
      "id": "1162",
      "geometry": {
        "type": "Point",
        "coordinates": [
          -75.201725,
          39.95706
        ]
      },
      "properties": {
        "id": "1162",
        "name": "Nexus",
        "artists": "Scott Eunson, Marianne Lovink",
        "years": [
          {
            "year": "2016"
          }
        ],
        "locationDescription": "All four corners, 40th and Market",
        "neighborhood": "University City"
      }
    },
    {
      "type": "Feature",
      "id": "1163",
      "geometry": {
        "type": "Point",
        "coordinates": [
          -75.16015,
          39.9518
        ]
      },
      "properties": {
        "id": "1163",
        "name": "PSFS Sign",
        "artists": "George Howe (Architect), William Lescaze (Architect)",
        "years": [
          {
            "year": "1932"
          }
        ],
        "locationDescription": "Southwest corner 12th and Market",
        "neighborhood": "Washington Square West"
      }
    },
    {
      "type": "Feature",
      "id": "1164",
      "geometry": {
        "type": "Point",
        "coordinates": [
          -75.16212,
          39.95314
        ]
      },
      "properties": {
        "id": "1164",
        "name": "City of Brotherly Love",
        "artists": "Neon of Dallas",
        "years": [
          {
            "year": "2019"
          }
        ],
        "locationDescription": "Southeast corner, Juniper and Filbert",
        "neighborhood": "Center City East"
      }
    },
    {
      "type": "Feature",
      "id": "1165",
      "geometry": {
        "type": "Point",
        "coordinates": [
          -75.18051,
          39.96721
        ]
      },
      "properties": {
        "id": "1165",
        "name": "stikman (Kelly Drive and Fairmount)",
        "artists": "stikman",
        "neighborhood": "East Park"
      }
    },
    {
      "type": "Feature",
      "id": "1166",
      "geometry": {
        "type": "Point",
        "coordinates": [
          -75.19246,
          40.021005
        ]
      },
      "properties": {
        "id": "1166",
        "name": "Thomas Jefferson University",
        "artists": "Tobi Kahn",
        "years": [
          {
            "year": "2022"
          }
        ],
        "locationDescription": "Northeast of the Northeast corner of Henry and School House Lane",
        "neighborhood": "East Falls"
      }
    },
    {
      "type": "Feature",
      "id": "1167",
      "geometry": {
        "type": "Point",
        "coordinates": [
          -75.192305,
          40.01962
        ]
      },
      "properties": {
        "id": "1167",
        "name": "Gibbs Hall Garden Gate",
        "locationDescription": "Southwest from School House and Henry",
        "neighborhood": "East Falls"
      }
    },
    {
      "type": "Feature",
      "id": "1168",
      "geometry": {
        "type": "Point",
        "coordinates": [
          -75.16795,
          39.90491
        ]
      },
      "properties": {
        "id": "1168",
        "name": "Veterans Stadium Liberty Bell",
        "artists": "Cima Network, Cutler Sign Advertising, Paul Hlywiak, Peter Hlywiak",
        "years": [
          {
            "year": "2019"
          }
        ],
        "locationDescription": "North side of Pattison East of Broad.",
        "neighborhood": "Stadium District"
      }
    },
    {
      "type": "Feature",
      "id": "1169",
      "geometry": {
        "type": "Point",
        "coordinates": [
          -75.2331,
          40.0321
        ]
      },
      "properties": {
        "id": "1169",
        "name": "Water Under the Bridge",
        "artists": "Beth Clevenstine, Paul Santoleri",
        "years": [
          {
            "year": "2015"
          }
        ],
        "locationDescription": "Between the South side of Umbria at Fountain Street and the Manayunk Canal",
        "neighborhood": "Germany Hill"
      }
    },
    {
      "type": "Feature",
      "id": "117",
      "geometry": {
        "type": "Point",
        "coordinates": [
          -75.1595,
          39.94296
        ]
      },
      "properties": {
        "id": "117",
        "name": "Elemental Intervals",
        "artists": "Bill Freeland",
        "years": [
          {
            "year": "1986"
          }
        ],
        "locationDescription": "North side of South Street between 10th and 11th",
        "neighborhood": "Washington Square West"
      }
    },
    {
      "type": "Feature",
      "id": "1170",
      "geometry": {
        "type": "Point",
        "coordinates": [
          -75.195685,
          39.95731
        ]
      },
      "properties": {
        "id": "1170",
        "name": "LAWN",
        "years": [
          {
            "year": "2019"
          }
        ],
        "locationDescription": "Northwest corner, 37th and Filbert",
        "neighborhood": "University City"
      }
    },
    {
      "type": "Feature",
      "id": "1171",
      "geometry": {
        "type": "Point",
        "coordinates": [
          -75.223065,
          40.02465
        ]
      },
      "properties": {
        "id": "1171",
        "name": "Turtle Creek",
        "artists": "Paul Santoleri",
        "years": [
          {
            "year": "2020"
          }
        ],
        "locationDescription": "Cotton Street South of Main",
        "neighborhood": "Manayunk"
      }
    },
    {
      "type": "Feature",
      "id": "1172",
      "geometry": {
        "type": "Point",
        "coordinates": [
          -75.17049,
          39.94776
        ]
      },
      "properties": {
        "id": "1172",
        "name": "Faces",
        "artists": "John Torrey Windrim (Architect)",
        "years": [
          {
            "year": "1893"
          }
        ],
        "locationDescription": "North side of Spruce, East of 18th",
        "neighborhood": "Rittenhouse"
      }
    },
    {
      "type": "Feature",
      "id": "1173",
      "geometry": {
        "type": "Point",
        "coordinates": [
          -75.219995,
          40.02338
        ]
      },
      "properties": {
        "id": "1173",
        "name": "Pinky",
        "artists": "Frederick Prescott",
        "years": [
          {
            "year": "2021"
          }
        ],
        "locationDescription": "West corner, Main and Lock",
        "neighborhood": "Manayunk"
      }
    },
    {
      "type": "Feature",
      "id": "1174",
      "geometry": {
        "type": "Point",
        "coordinates": [
          -75.21808,
          40.022275
        ]
      },
      "properties": {
        "id": "1174",
        "name": "Road Race (Aluminum Bikes)",
        "artists": "Artesano Iron Works",
        "years": [
          {
            "year": "2021"
          }
        ],
        "locationDescription": "Southwest side of Shurs, Northeast of Main",
        "neighborhood": "Wissahickon"
      }
    },
    {
      "type": "Feature",
      "id": "1175",
      "geometry": {
        "type": "Point",
        "coordinates": [
          -75.19287,
          39.953785
        ]
      },
      "properties": {
        "id": "1175",
        "name": "threshold object",
        "artists": "Kennedy and Violich Architecture",
        "years": [
          {
            "year": "2012"
          }
        ],
        "locationDescription": "North side of Sansom, West of 34th",
        "neighborhood": "University City"
      }
    },
    {
      "type": "Feature",
      "id": "1176",
      "geometry": {
        "type": "Point",
        "coordinates": [
          -75.15967,
          39.9506
        ]
      },
      "properties": {
        "id": "1176",
        "name": "CRADLE",
        "artists": "Diogo Machado (ADD FUEL)",
        "years": [
          {
            "year": "2023"
          }
        ],
        "locationDescription": "North side of Chestnut, East of 12th",
        "neighborhood": "Washington Square West"
      }
    },
    {
      "type": "Feature",
      "id": "1177",
      "geometry": {
        "type": "Point",
        "coordinates": [
          -75.18295,
          39.95586
        ]
      },
      "properties": {
        "id": "1177",
        "name": "Amtrak Logo",
        "years": [
          {
            "year": "2013"
          }
        ],
        "locationDescription": "East side of 30th at JFK",
        "neighborhood": "University City"
      }
    },
    {
      "type": "Feature",
      "id": "1178",
      "geometry": {
        "type": "Point",
        "coordinates": [
          -75.181675,
          39.95603
        ]
      },
      "properties": {
        "id": "1178",
        "name": "Tools of the Trade",
        "artists": "Virginia Maksymowicz",
        "years": [
          {
            "year": "2022"
          }
        ],
        "locationDescription": "Northeast corner, 30th and Market",
        "neighborhood": "University City"
      }
    },
    {
      "type": "Feature",
      "id": "1179",
      "geometry": {
        "type": "Point",
        "coordinates": [
          -75.12766,
          39.971855
        ]
      },
      "properties": {
        "id": "1179",
        "name": "Fishtown Hockey Rink Sign",
        "locationDescription": "West side of E. Montgomery, North of E. Girard",
        "neighborhood": "Fishtown - Lower Kensington"
      }
    },
    {
      "type": "Feature",
      "id": "118",
      "geometry": {
        "type": "Point",
        "coordinates": [
          -75.16565,
          39.95425
        ]
      },